{
  "tabList": [
    {
      "name": "荣昌猪存栏量",
      "unit": "头",
      "value": 52145
    },
    {
      "name": "荣昌存栏量",
      "unit": "头",
      "value": 35247
    },
    {
      "name": "母猪存栏量",
      "unit": "头",
      "value": 10258
    },
    {
      "name": "公猪存栏量",
      "unit": "头",
      "value": 1573
    }
  ],
  "detailInfo": [
    {
      "value": 0,
      "latitude": 30.812595,
      "name": "万州区",
      "longitude": 108.415519,
      "data": []
    },
    {
      "value": 0,
      "latitude": 29.706428,
      "name": "涪陵区",
      "longitude": 107.39448,
      "data": []
    },
    {
      "value": 0,
      "latitude": 30.201406,
      "name": "渝中区",
      "longitude": 107.797473,
      "data": []
    },
    {
      "value": 0,
      "latitude": 29.490309,
      "name": "大渡口区",
      "longitude": 106.488845,
      "data": []
    },
    {
      "value": 0,
      "latitude": 29.61348,
      "name": "江北区",
      "longitude": 106.65787,
      "data": []
    },
    {
      "value": 0,
      "latitude": 29.547192,
      "name": "沙坪坝区",
      "longitude": 106.463439,
      "data": []
    },
    {
      "value": 0,
      "latitude": 29.50409,
      "name": "九龙坡区",
      "longitude": 106.50646,
      "data": []
    },
    {
      "value": 0,
      "latitude": 29.50174,
      "name": "南岸区",
      "longitude": 106.63321,
      "data": []
    },
    {
      "value": 0,
      "latitude": 29.811138,
      "name": "北碚区",
      "longitude": 106.402277,
      "data": []
    },
    {
      "value": 0,
      "latitude": 29.03375,
      "name": "綦江区",
      "data": [],
      "longitude": 106.65782
    },
    {
      "value": 0,
      "latitude": 29.713391,
      "name": "大足区",
      "data": [],
      "longitude": 105.728134
    },
    {
      "value": 0,
      "latitude": 29.723786,
      "name": "渝北区",
      "data": [],
      "longitude": 106.637722
    },
    {
      "value": 0,
      "latitude": 29.38,
      "name": "巴南区",
      "data": [],
      "longitude": 106.52
    },
    {
      "value": 0,
      "latitude": 29.539286,
      "name": "黔江区",
      "data": [],
      "longitude": 108.777471
    },
    {
      "value": 0,
      "latitude": 29.863715,
      "name": "长寿区",
      "data": [],
      "longitude": 107.08751
    },
    {
      "value": 0,
      "latitude": 29.32315,
      "name": "江津区",
      "data": [],
      "longitude": 106.25918
    },
    {
      "value": 0,
      "latitude": 29.97782,
      "name": "合川区",
      "data": [],
      "longitude": 106.2827
    },
    {
      "value": 0,
      "latitude": 29.362501,
      "name": "永川区",
      "data": [],
      "longitude": 105.933253
    },
    {
      "value": 0,
      "latitude": 29.163561,
      "name": "南川区",
      "data": [],
      "longitude": 107.105718
    },
    {
      "value": 0,
      "latitude": 30.197571,
      "name": "潼南区",
      "data": [],
      "longitude": 105.846823
    },
    {
      "value": 0,
      "latitude": 29.847001,
      "name": "铜梁区",
      "data": [],
      "longitude": 106.054869
    },
    {
      "value": 0,
      "latitude": 29.423195,
      "name": "荣昌区",
      "data": [
        {
          "name": "畜科院基地",
          "longitude": 105.588228,
          "latitude": 29.353195,
          "type": "xkyjd",
          "list": {
            "存栏总数": 502,
            "母猪": 100,
            "种公猪": 112,
            "育肥猪": 290
          }
        },
        {
          "name": "畜科院总部",
          "longitude": 105.408741,
          "latitude": 29.525762,
          "type": "xkyzb",
          "list": {
            "存栏总数": 502,
            "母猪": 100,
            "种公猪": 112,
            "育肥猪": 290
          }
        }
      ],
      "longitude": 105.618228
    },
    {
      "value": 0,
      "latitude": 29.583688,
      "name": "璧山区",
      "data": [],
      "longitude": 106.211598
    },
    {
      "value": 0,
      "level": 2,
      "latitude": 30.660545,
      "name": "梁平区",
      "data": [],
      "longitude": 107.7761
    },
    {
      "value": 0,
      "latitude": 31.95324,
      "name": "城口县",
      "data": [],
      "longitude": 108.670789
    },
    {
      "value": 0,
      "latitude": 29.869522,
      "name": "丰都县",
      "data": [],
      "longitude": 107.737421
    },
    {
      "value": 0,
      "latitude": 30.27311,
      "name": "垫江县",
      "data": [],
      "longitude": 107.40496
    },
    {
      "value": 0,
      "latitude": 29.331757,
      "name": "武隆区",
      "data": [],
      "longitude": 107.766355
    },
    {
      "value": 0,
      "level": 2,
      "latitude": 30.33035,
      "name": "忠县",
      "data": [],
      "longitude": 108.00981
    },
    {
      "value": 0,
      "latitude": 31.166383,
      "name": "开州区",
      "data": [],
      "longitude": 108.399888
    },
    {
      "value": 0,
      "level": 2,
      "latitude": 30.936701,
      "name": "云阳县",
      "data": [],
      "longitude": 108.703933
    },
    {
      "value": 0,
      "latitude": 31.024285,
      "name": "奉节县",
      "data": [],
      "longitude": 109.407114
    },
    {
      "value": 0,
      "latitude": 31.09878,
      "name": "巫山县",
      "data": [],
      "longitude": 109.92584
    },
    {
      "value": 0,
      "latitude": 31.404957,
      "name": "巫溪县",
      "data": [],
      "longitude": 109.576518
    },
    {
      "value": 0,
      "latitude": 30.005428,
      "name": "石柱土家族自治县",
      "data": [],
      "longitude": 108.120652
    },
    {
      "value": 0,
      "latitude": 28.453856,
      "name": "秀山土家族苗族自治县",
      "data": [],
      "longitude": 109.014012
    },
    {
      "value": 0,
      "latitude": 28.847004,
      "name": "酉阳土家族苗族自治县",
      "data": [],
      "longitude": 108.774354
    },
    {
      "value": 0,
      "latitude": 29.299567,
      "name": "彭水苗族土家族自治县",
      "data": [],
      "longitude": 108.172227
    }
  ]
}