{
  "parentName": null,
  "total": 1116,
  "code": "500",
  "children": [
    {
      "parentName": "重庆市",
      "total": 52,
      "code": "500101",
      "children": [],
      "parentCode": "500",
      "level": 2,
      "latitude": 30.812595,
      "name": "万州区",
      "id": 2,
      "longitude": 108.415519
    },
    {
      "parentName": "重庆市",
      "total": 27,
      "code": "500102",
      "children": [],
      "parentCode": "500",
      "level": 2,
      "latitude": 29.706428,
      "name": "涪陵区",
      "id": 3,
      "longitude": 107.39448
    },
    {
      "parentName": "重庆市",
      "total": 12,
      "code": "500103",
      "children": [],
      "parentCode": "500",
      "level": 2,
      "latitude": 30.201406,
      "name": "渝中区",
      "id": 4,
      "longitude": 107.797473
    },
    {
      "parentName": "重庆市",
      "total": 32,
      "code": "500104",
      "children": [],
      "parentCode": "500",
      "level": 2,
      "latitude": 29.490309,
      "name": "大渡口区",
      "id": 5,
      "longitude": 106.488845
    },
    {
      "parentName": "重庆市",
      "total": 12,
      "code": "500105",
      "children": [],
      "parentCode": "500",
      "level": 2,
      "latitude": 29.61348,
      "name": "江北区",
      "id": 6,
      "longitude": 106.65787
    },
    {
      "parentName": "重庆市",
      "total": 57,
      "code": "500106",
      "children": [],
      "parentCode": "500",
      "level": 2,
      "latitude": 29.547192,
      "name": "沙坪坝区",
      "id": 7,
      "longitude": 106.463439
    },
    {
      "parentName": "重庆市",
      "total": 18,
      "code": "500107",
      "children": [],
      "parentCode": "500",
      "level": 2,
      "latitude": 29.50409,
      "name": "九龙坡区",
      "id": 8,
      "longitude": 106.50646
    },
    {
      "parentName": "重庆市",
      "total": 22,
      "code": "500108",
      "children": [],
      "parentCode": "500",
      "level": 2,
      "latitude": 29.50174,
      "name": "南岸区",
      "id": 9,
      "longitude": 106.63321
    },
    {
      "parentName": "重庆市",
      "total": 17,
      "code": "500109",
      "children": [],
      "parentCode": "500",
      "level": 2,
      "latitude": 29.811138,
      "name": "北碚区",
      "id": 10,
      "longitude": 106.402277
    },
    {
      "parentName": "重庆市",
      "total": 45,
      "code": "500110",
      "children": [],
      "parentCode": "500",
      "level": 2,
      "latitude": 29.03375,
      "name": "綦江区",
      "id": 11,
      "longitude": 106.65782
    },
    {
      "parentName": "重庆市",
      "total": 28,
      "code": "500111",
      "children": [],
      "parentCode": "500",
      "level": 2,
      "latitude": 29.713391,
      "name": "大足区",
      "id": 12,
      "longitude": 105.728134
    },
    {
      "parentName": "重庆市",
      "total": 26,
      "code": "500112",
      "children": [],
      "parentCode": "500",
      "level": 2,
      "latitude": 29.723786,
      "name": "渝北区",
      "id": 13,
      "longitude": 106.637722
    },
    {
      "parentName": "重庆市",
      "total": 23,
      "code": "500113",
      "children": [],
      "parentCode": "500",
      "level": 2,
      "latitude": 29.38,
      "name": "巴南区",
      "id": 14,
      "longitude": 106.52
    },
    {
      "parentName": "重庆市",
      "total": 30,
      "code": "500114",
      "children": [],
      "parentCode": "500",
      "level": 2,
      "latitude": 29.539286,
      "name": "黔江区",
      "id": 15,
      "longitude": 108.777471
    },
    {
      "parentName": "重庆市",
      "total": 18,
      "code": "500115",
      "children": [],
      "parentCode": "500",
      "level": 2,
      "latitude": 29.863715,
      "name": "长寿区",
      "id": 16,
      "longitude": 107.08751
    },
    {
      "parentName": "重庆市",
      "total": 37,
      "code": "500116",
      "children": [],
      "parentCode": "500",
      "level": 2,
      "latitude": 29.32315,
      "name": "江津区",
      "id": 17,
      "longitude": 106.25918
    },
    {
      "parentName": "重庆市",
      "total": 33,
      "code": "500117",
      "children": [],
      "parentCode": "500",
      "level": 2,
      "latitude": 29.97782,
      "name": "合川区",
      "id": 18,
      "longitude": 106.2827
    },
    {
      "parentName": "重庆市",
      "total": 25,
      "code": "500118",
      "children": [],
      "parentCode": "500",
      "level": 2,
      "latitude": 29.362501,
      "name": "永川区",
      "id": 19,
      "longitude": 105.933253
    },
    {
      "parentName": "重庆市",
      "total": 36,
      "code": "500119",
      "children": [],
      "parentCode": "500",
      "level": 2,
      "latitude": 29.163561,
      "name": "南川区",
      "id": 20,
      "longitude": 107.105718
    },
    {
      "parentName": "重庆市",
      "total": 22,
      "code": "500152",
      "children": [],
      "parentCode": "500",
      "level": 2,
      "latitude": 30.197571,
      "name": "潼南区",
      "id": 23,
      "longitude": 105.846823
    },
    {
      "parentName": "重庆市",
      "total": 28,
      "code": "500151",
      "children": [],
      "parentCode": "500",
      "level": 2,
      "latitude": 29.847001,
      "name": "铜梁区",
      "id": 22,
      "longitude": 106.054869
    },
    {
      "parentName": "重庆市",
      "total": 20,
      "code": "500153",
      "children": [],
      "parentCode": "500",
      "level": 2,
      "latitude": 29.423195,
      "name": "荣昌区",
      "id": 24,
      "longitude": 105.618228
    },
    {
      "parentName": "重庆市",
      "total": 15,
      "code": "500120",
      "children": [],
      "parentCode": "500",
      "level": 2,
      "latitude": 29.583688,
      "name": "璧山区",
      "id": 21,
      "longitude": 106.211598
    },
    {
      "parentName": "重庆市",
      "total": 35,
      "code": "500155",
      "children": [],
      "parentCode": "500",
      "level": 2,
      "latitude": 30.660545,
      "name": "梁平区",
      "id": 26,
      "longitude": 107.7761
    },
    {
      "parentName": "重庆市",
      "total": 25,
      "code": "500229",
      "children": [],
      "parentCode": "500",
      "level": 2,
      "latitude": 31.95324,
      "name": "城口县",
      "id": 28,
      "longitude": 108.670789
    },
    {
      "parentName": "重庆市",
      "total": 31,
      "code": "500230",
      "children": [],
      "parentCode": "500",
      "level": 2,
      "latitude": 29.869522,
      "name": "丰都县",
      "id": 29,
      "longitude": 107.737421
    },
    {
      "parentName": "重庆市",
      "total": 25,
      "code": "500231",
      "children": [],
      "parentCode": "500",
      "level": 2,
      "latitude": 30.27311,
      "name": "垫江县",
      "id": 30,
      "longitude": 107.40496
    },
    {
      "parentName": "重庆市",
      "total": 26,
      "code": "500156",
      "children": [],
      "parentCode": "500",
      "level": 2,
      "latitude": 29.331757,
      "name": "武隆区",
      "id": 27,
      "longitude": 107.766355
    },
    {
      "parentName": "重庆市",
      "total": 28,
      "code": "500233",
      "children": [],
      "parentCode": "500",
      "level": 2,
      "latitude": 30.33035,
      "name": "忠县",
      "id": 31,
      "longitude": 108.00981
    },
    {
      "parentName": "重庆市",
      "total": 40,
      "code": "500154",
      "children": [],
      "parentCode": "500",
      "level": 2,
      "latitude": 31.166383,
      "name": "开州区",
      "id": 25,
      "longitude": 108.399888
    },
    {
      "parentName": "重庆市",
      "total": 42,
      "code": "500235",
      "children": [],
      "parentCode": "500",
      "level": 2,
      "latitude": 30.936701,
      "name": "云阳县",
      "id": 32,
      "longitude": 108.703933
    },
    {
      "parentName": "重庆市",
      "total": 31,
      "code": "500236",
      "children": [],
      "parentCode": "500",
      "level": 2,
      "latitude": 31.024285,
      "name": "奉节县",
      "id": 33,
      "longitude": 109.407114
    },
    {
      "parentName": "重庆市",
      "total": 26,
      "code": "500237",
      "children": [],
      "parentCode": "500",
      "level": 2,
      "latitude": 31.09878,
      "name": "巫山县",
      "id": 34,
      "longitude": 109.92584
    },
    {
      "parentName": "重庆市",
      "total": 34,
      "code": "500238",
      "children": [],
      "parentCode": "500",
      "level": 2,
      "latitude": 31.404957,
      "name": "巫溪县",
      "id": 35,
      "longitude": 109.576518
    },
    {
      "parentName": "重庆市",
      "total": 32,
      "code": "500240",
      "children": [],
      "parentCode": "500",
      "level": 2,
      "latitude": 30.005428,
      "name": "石柱土家族自治县",
      "id": 36,
      "longitude": 108.120652
    },
    {
      "parentName": "重庆市",
      "total": 27,
      "code": "500241",
      "children": [],
      "parentCode": "500",
      "level": 2,
      "latitude": 28.453856,
      "name": "秀山土家族苗族自治县",
      "id": 37,
      "longitude": 109.014012
    },
    {
      "parentName": "重庆市",
      "total": 38,
      "code": "500242",
      "children": [],
      "parentCode": "500",
      "level": 2,
      "latitude": 28.847004,
      "name": "酉阳土家族苗族自治县",
      "id": 38,
      "longitude": 108.774354
    },
    {
      "parentName": "重庆市",
      "total": 40,
      "code": "500243",
      "children": [],
      "parentCode": "500",
      "level": 2,
      "latitude": 29.299567,
      "name": "彭水苗族土家族自治县",
      "id": 39,
      "longitude": 108.172227
    }
  ],
  "parentCode": null,
  "level": 1,
  "latitude": null,
  "name": "重庆市",
  "id": 1,
  "longitude": null
}